station_name,lat,lon,country
Faulbaums,51.3345,2.514983333,BE
Grafton,51.40645,2.8185,BE
Fairplay,51.16885,2.616683333,BE
Buitenratel,51.24033333,2.504,BE
OEST1,53.06843,4.88076,NL
OEST5,53.09392,5.20231,NL
TreeReef Control,53.22300101,5.010292481,NL
